,ID,Name,Employees,Address,Latitude,Longitude,Importance
0,1,Madeira,8, 3666 21st St San Francisco CA 94114 USA,37.756488877551,-122.429343346939,0.6309999999999999
1,2,Bready Shop,15, 735 Dolores St San Francisco CA 94119 USA,37.7577257083333,-122.425529333333,0.5209999999999999
2,3,Super River,25, 332 Hill St San Francisco California 94114 USA,37.755725122449,-122.428601306122,0.6409999999999999
3,4,Ben's Shop,10, 3995 23rd St San Francisco CA 94114 USA,37.7529648,-122.4317141,0.6309999999999999
4,5,Sanchez,12, 1056 Sanchez St San Francisco California USA,37.7521458,-122.42981516,0.6309999999999999
5,6,Richvalley,20, 551 Alvarado St San Francisco CA 94114 USA,37.7536733265306,-122.433219959184,0.6309999999999999
